[
  {
    "name": "Raumkomplett",
    "address": "Theobaldgasse 20",
    "address2": null,
    "city": "Vienna",
    "state": null,
    "postal_code": "1060",
    "country_code": "AT",
    "phone": null,
    "website": "https://www.raumkomplett.at/home.html",
    "lat": 48.200642,
    "lng": 16.3586485
  },
  {
    "name": "revolog",
    "address": "Gumpendorferstraße 119",
    "address2": null,
    "city": "Vienna",
    "state": null,
    "postal_code": "A-1060",
    "country_code": "AT",
    "phone": "436763729101",
    "website": "http://www.revolog.net/en/",
    "lat": 48.2083537,
    "lng": 16.3725042
  },
  {
    "name": "Supersense",
    "address": "Praterstrasse 70",
    "address2": null,
    "city": "Vienna",
    "state": null,
    "postal_code": "1020",
    "country_code": "AT",
    "phone": "43 (0) 1 96 90 832",
    "website": "https://the.supersense.com/",
    "lat": 48.2169132,
    "lng": 16.3891325
  },
  {
    "name": "Will Gresham",
    "address": "198-200 Moggill Road",
    "address2": null,
    "city": "Brisbane",
    "state": null,
    "postal_code": null,
    "country_code": "AU",
    "phone": "07 3229 5083",
    "website": "https://fotofast.com.au/",
    "lat": -27.4549074,
    "lng": 152.9387819
  },
  {
    "name": "A Glade Film",
    "address": "Unit 2, 21 Worth Street",
    "address2": null,
    "city": "Chullora",
    "state": "NSW",
    "postal_code": "2190",
    "country_code": "AU",
    "phone": "+61-481745230",
    "website": "http://www.agladefilm.com.au",
    "lat": -33.8925,
    "lng": 151.0477778
  },
  {
    "name": "Decisive Moment",
    "address": "PO Box 7023",
    "address2": null,
    "city": "Doncaster East",
    "state": null,
    "postal_code": "VIC 3109",
    "country_code": "AU",
    "phone": null,
    "website": "http://decisivemoment.com.au",
    "lat": -37.7788744,
    "lng": 145.1638815
  },
  {
    "name": "Walkens House of Film",
    "address": "101 Brunswick St",
    "address2": null,
    "city": "Fitzroy",
    "state": "Victoria",
    "postal_code": "3065",
    "country_code": "AU",
    "phone": "(03) 9077 8163",
    "website": "https://walkens.com.au/",
    "lat": -37.8045008,
    "lng": 144.9772645
  },
  {
    "name": "Thiccboi film",
    "address": "300 Murray St",
    "address2": null,
    "city": "Perth",
    "state": "WA",
    "postal_code": "6000",
    "country_code": "AU",
    "phone": null,
    "website": "http://www.thiccboifilm.com",
    "lat": -31.9516373,
    "lng": 115.8576749
  },
  {
    "name": "Retro camera",
    "address": "Stationsstraat 19",
    "address2": null,
    "city": "Ieper",
    "state": null,
    "postal_code": "8900",
    "country_code": "BE",
    "phone": "+32 (0) 57 21 54 33",
    "website": "https://www.retrocamera.be/nl/44_dubblefilm",
    "lat": 50.8489436,
    "lng": 2.8809643
  },
  {
    "name": "Campion Photo",
    "address": "Rue Saint-Boniface 13",
    "address2": null,
    "city": "Ixelles",
    "state": null,
    "postal_code": "1050",
    "country_code": "BE",
    "phone": "02 512 13 31",
    "website": "https://www.appareilsphotoscampionbruxelles.be",
    "lat": 50.8360705,
    "lng": 4.3646033
  },
  {
    "name": "Mcbain Camera",
    "address": "10805 107 Avenue NW",
    "address2": null,
    "city": "Edmonton",
    "state": "AB, Canada",
    "postal_code": "T5H 0W9",
    "country_code": "CA",
    "phone": "780-420-0404",
    "website": "https://www.mcbaincamera.com/",
    "lat": 53.5462055,
    "lng": -113.491241
  },
  {
    "name": "le studio argentique",
    "address": "355 rue Rachel Est",
    "address2": null,
    "city": "Montréal",
    "state": null,
    "postal_code": "QC H2W 1E8",
    "country_code": "CA",
    "phone": null,
    "website": "http://www.studioargentique.net",
    "lat": 45.5214125,
    "lng": -73.5788877
  },
  {
    "name": "Downtown Camera Toronto",
    "address": "89 Queen Street East",
    "address2": null,
    "city": "Toronto",
    "state": null,
    "postal_code": "M5C 1S1",
    "country_code": "CA",
    "phone": null,
    "website": "https://www.downtowncamera.com/",
    "lat": 43.653108,
    "lng": -79.3750902
  },
  {
    "name": "Beau Film",
    "address": "110 -1401 W. 8th Ave",
    "address2": null,
    "city": "Vancouver",
    "state": "B.C.",
    "postal_code": "V6H1C9",
    "country_code": "CA",
    "phone": "6.047.347.771",
    "website": "http://www.beauphoto.com",
    "lat": 49.2645715,
    "lng": -123.1363809
  },
  {
    "name": "Migo",
    "address": "Las Azucenas 2997",
    "address2": "Providencia",
    "city": "Santiago",
    "state": null,
    "postal_code": null,
    "country_code": "CL",
    "phone": "56227234064",
    "website": "http://alturasur.com/",
    "lat": -33.4291685,
    "lng": -70.587937
  },
  {
    "name": "Colin Huang",
    "address": "150 West Chenyang Rd., No.89, Room 601",
    "address2": null,
    "city": "Pudong District, Shanghai",
    "state": null,
    "postal_code": "201202",
    "country_code": "CN",
    "phone": null,
    "website": "https://www.sifang.photo/",
    "lat": 31.2372504,
    "lng": 121.5014197
  },
  {
    "name": "Que Rollo",
    "address": null,
    "address2": null,
    "city": "Bogota",
    "state": null,
    "postal_code": null,
    "country_code": "CO",
    "phone": "+57 3185196809",
    "website": null,
    "lat": 4.6533817,
    "lng": -74.0836331
  },
  {
    "name": "Analogue Prague",
    "address": "Vlašská 10",
    "address2": null,
    "city": "Praha",
    "state": null,
    "postal_code": "11800",
    "country_code": "CZ",
    "phone": "603 530 035",
    "website": "https://www.analogue.cz",
    "lat": 50.0873462,
    "lng": 14.3999589
  },
  {
    "name": "Fotoimpex",
    "address": "Alte Schonhauser Str. 32b",
    "address2": null,
    "city": "Berlin",
    "state": null,
    "postal_code": "DE-10119",
    "country_code": "DE",
    "phone": "(0) 33631 6459-0",
    "website": "https://www.fotoimpex.de/",
    "lat": 52.5253101,
    "lng": 13.4068391
  },
  {
    "name": "Safelight Berlin",
    "address": "Schivelbeiner Str. 9",
    "address2": null,
    "city": "Berlin",
    "state": null,
    "postal_code": "10439",
    "country_code": "DE",
    "phone": "+49 (0)30 921 59044",
    "website": "https://www.safelightberlin.com/",
    "lat": 52.5510208,
    "lng": 13.4111268
  },
  {
    "name": "Nordfoto",
    "address": "Werkstraße 8",
    "address2": null,
    "city": "Norderstedt",
    "state": null,
    "postal_code": "22844",
    "country_code": "DE",
    "phone": "0405298650",
    "website": "https://www.nordfoto.de/",
    "lat": 53.7297358,
    "lng": 10.0175767
  },
  {
    "name": "One of many cameras",
    "address": "Grbrżdre Torv 4",
    "address2": null,
    "city": "Copenhagen",
    "state": null,
    "postal_code": "1154",
    "country_code": "DK",
    "phone": "45 3514 7258",
    "website": "https://oneofmanycameras.com/",
    "lat": 55.6867243,
    "lng": 12.5700724
  },
  {
    "name": "Fotofeed Almoradí",
    "address": "C. San Andrés, 3",
    "address2": null,
    "city": "Almoradí",
    "state": "Alicante",
    "postal_code": "03160",
    "country_code": "ES",
    "phone": "965 70 27 73",
    "website": null,
    "lat": 38.1103347,
    "lng": -0.7885321
  },
  {
    "name": "Sirocco Aparel",
    "address": "La Plazuela 7",
    "address2": null,
    "city": "Arrecife",
    "state": "Las Palmas",
    "postal_code": "35500",
    "country_code": "ES",
    "phone": "928 831 689",
    "website": "http://www.bysiroco.com/",
    "lat": 28.9639681,
    "lng": -13.5499014
  },
  {
    "name": "Casanova Foto Barcelona",
    "address": "Ronda de la Universitat 35",
    "address2": null,
    "city": "Barcelona",
    "state": "Barcelona",
    "postal_code": "08007",
    "country_code": "ES",
    "phone": "+34933027363",
    "website": "http://www.casanovafoto.com",
    "lat": 41.3872515,
    "lng": 2.1676245
  },
  {
    "name": "Chandal",
    "address": "Tantarantana 16",
    "address2": null,
    "city": "Barcelona",
    "state": "Cataluña",
    "postal_code": "08003",
    "country_code": "ES",
    "phone": "933183819",
    "website": "https://www.chandal.tv",
    "lat": 41.3869116,
    "lng": 2.1813399
  },
  {
    "name": "dubblefilm",
    "address": "Calle Verdi 28",
    "address2": null,
    "city": "Barcelona",
    "state": "Barcelona",
    "postal_code": "08012",
    "country_code": "ES",
    "phone": "937609245",
    "website": "https://dubblefilm.com/",
    "lat": 41.3825802,
    "lng": 2.177073
  },
  {
    "name": "dubblelab",
    "address": "Calle Zamora 99",
    "address2": "3, 2",
    "city": "Barcelona",
    "state": "Barcelona",
    "postal_code": "08018",
    "country_code": "ES",
    "phone": "644933795",
    "website": "http://dubblelab.com",
    "lat": 41.3825802,
    "lng": 2.177073
  },
  {
    "name": "Grey Street",
    "address": "Carrer del Peu de la Creu 25",
    "address2": null,
    "city": "Barcelona",
    "state": null,
    "postal_code": "08001",
    "country_code": "ES",
    "phone": null,
    "website": "https://www.greystreetbarcelona.com/",
    "lat": 41.3808058,
    "lng": 2.1665874
  },
  {
    "name": "Marketmon",
    "address": "Carrer Provença, 116 BAJO 3",
    "address2": null,
    "city": "Barcelona",
    "state": "Barcelona",
    "postal_code": "08029",
    "country_code": "ES",
    "phone": "934199059",
    "website": null,
    "lat": 41.3825802,
    "lng": 2.177073
  },
  {
    "name": "Visualkorner",
    "address": "Carrer de Balmes, 354, baixos",
    "address2": null,
    "city": "Barcelona",
    "state": "Barcelona",
    "postal_code": "08006",
    "country_code": "ES",
    "phone": "930 10 72 95",
    "website": "https://visualkorner.com/",
    "lat": 41.3825802,
    "lng": 2.177073
  },
  {
    "name": "Foto Samar",
    "address": "Doctor Achucarro, 2",
    "address2": null,
    "city": "Bilbao",
    "state": null,
    "postal_code": "48011",
    "country_code": "ES",
    "phone": "944 163 110",
    "website": "http://www.fotosamar.eu",
    "lat": 43.2628424,
    "lng": -2.9367411
  },
  {
    "name": "Luminiq Futurfoto Wonder Photo Shop",
    "address": "Av. Siglo XXI, 19",
    "address2": null,
    "city": "Boadilla del Monte",
    "state": "Madrid",
    "postal_code": "28660",
    "country_code": "ES",
    "phone": "916 33 67 11",
    "website": "https://www.luminiq.es/",
    "lat": 40.4056333,
    "lng": -3.8961147
  },
  {
    "name": "Electro Híper Europa",
    "address": "Av. Enrique Gimeno, n 101",
    "address2": "Centro Comercial EstePark",
    "city": "Castellón",
    "state": "Castellón",
    "postal_code": "12006",
    "country_code": "ES",
    "phone": "964 29 72 90",
    "website": "https://eheuropa.com/",
    "lat": 40.2518568,
    "lng": -0.0615052
  },
  {
    "name": "Lantoki",
    "address": "Mandasko Dukearen Pasealekua, 52",
    "address2": null,
    "city": "Donostia",
    "state": "Guipuzkoa",
    "postal_code": "20012",
    "country_code": "ES",
    "phone": "943 32 15 69",
    "website": "https://www.tabakalera.eu/es/ecosistema/iniciativas-privadas#",
    "lat": 43.3224219,
    "lng": -1.9838889
  },
  {
    "name": "Frame Media",
    "address": "Calle Tierra Nº42, bajo",
    "address2": null,
    "city": "Ferrol",
    "state": "A Coruña",
    "postal_code": "15402",
    "country_code": "ES",
    "phone": "+34 657 444 530",
    "website": null,
    "lat": 43.4845713,
    "lng": -8.2329968
  },
  {
    "name": "Casanova Foto Madrid",
    "address": "C. de Vandergoten 8",
    "address2": null,
    "city": "Madrid",
    "state": null,
    "postal_code": "28014",
    "country_code": "ES",
    "phone": "+34914340980",
    "website": "https://www.casanovafoto.com/",
    "lat": 40.4052362,
    "lng": -3.6820507
  },
  {
    "name": "Fotocasión",
    "address": "Calle de la Ribera de Curtidores, 22",
    "address2": null,
    "city": "Madrid",
    "state": null,
    "postal_code": "28005",
    "country_code": "ES",
    "phone": "915 39 74 90",
    "website": "https://www.fotocasion.es/",
    "lat": 40.416782,
    "lng": -3.703507
  },
  {
    "name": "La Peliculera",
    "address": "Calle Argensola 2",
    "address2": null,
    "city": "Madrid",
    "state": null,
    "postal_code": "28004",
    "country_code": "ES",
    "phone": "913 10 44 18",
    "website": "https://lapeliculera.com",
    "lat": 40.4247103,
    "lng": -3.6951002
  },
  {
    "name": "Planet foto S.L.",
    "address": "Carrer de la Missió de San Gabriel, 1",
    "address2": null,
    "city": "Palma",
    "state": "Illes Balears",
    "postal_code": "07610",
    "country_code": "ES",
    "phone": "661 25 21 00",
    "website": null,
    "lat": 39.5139725,
    "lng": 2.7469961
  },
  {
    "name": "Servifot",
    "address": "C/ Séquia Calvera, 34",
    "address2": null,
    "city": "Sedaví",
    "state": "VALENCIA",
    "postal_code": "46910",
    "country_code": "ES",
    "phone": "+34 963 182 213",
    "website": "https://www.servifot.com/",
    "lat": 39.4247119,
    "lng": -0.3834581
  },
  {
    "name": "Santana",
    "address": "Pl. Jesús de la Pasión, 4",
    "address2": null,
    "city": "Sevilla",
    "state": null,
    "postal_code": "41004",
    "country_code": "ES",
    "phone": "954225492",
    "website": "http://www.santanafoto.com/",
    "lat": 37.3900867,
    "lng": -5.9923077
  },
  {
    "name": "Comercial Benajes",
    "address": "C. Nueva, 6",
    "address2": null,
    "city": "Teruel",
    "state": "Teruel",
    "postal_code": "44001",
    "country_code": "ES",
    "phone": "978 60 36 79",
    "website": null,
    "lat": 40.3416656,
    "lng": -1.1079974
  },
  {
    "name": "Iberflash Fotografía",
    "address": "Avda Viñuelas 38 posterior",
    "address2": null,
    "city": "Tres Cantos",
    "state": "Madrid",
    "postal_code": "28760",
    "country_code": "ES",
    "phone": "34 91 804 9394",
    "website": "https://tienda.iberflash.es",
    "lat": 40.6012354,
    "lng": -3.7038475
  },
  {
    "name": "Fotopro",
    "address": "C. de Castelló 2",
    "address2": null,
    "city": "Valencia",
    "state": "Valencia",
    "postal_code": "46004",
    "country_code": "ES",
    "phone": "963 51 38 34",
    "website": "https://www.fotopro.es/",
    "lat": 39.5063937,
    "lng": -0.3641821
  },
  {
    "name": "Shuave Shop",
    "address": "C. Casto Méndez Núñez, 10",
    "address2": null,
    "city": "Zaragoza",
    "state": null,
    "postal_code": "50003",
    "country_code": "ES",
    "phone": "876 53 68 40",
    "website": "http://www.shuave.com/",
    "lat": 41.6521342,
    "lng": -0.8809428
  },
  {
    "name": "L'imaginarium du Photographe",
    "address": "9 Rue Terrasse",
    "address2": null,
    "city": "Clermont-Ferrand",
    "state": null,
    "postal_code": "63000",
    "country_code": "FR",
    "phone": "33 6 69 91 78 32",
    "website": "https://www.facebook.com/limaginariumduphotographe",
    "lat": 45.7779799,
    "lng": 3.0850802
  },
  {
    "name": "Les Ateliers de Marinette",
    "address": "46 Rue Saint-Georges",
    "address2": null,
    "city": "Lyon",
    "state": null,
    "postal_code": "69005",
    "country_code": "FR",
    "phone": "33 (0)9 50 22 66 48",
    "website": "https://www.ateliers-marinette.fr",
    "lat": 45.7577621,
    "lng": 4.8250095
  },
  {
    "name": "Digixo",
    "address": "15 Rue de la Banque",
    "address2": null,
    "city": "Paris",
    "state": null,
    "postal_code": "75002",
    "country_code": "FR",
    "phone": "33 1 55 35 08 40",
    "website": "https://www.digixo.com",
    "lat": 48.8678446,
    "lng": 2.3408138
  },
  {
    "name": "Nation Photo",
    "address": "39 rue des Lombards",
    "address2": null,
    "city": "Paris",
    "state": null,
    "postal_code": "75001",
    "country_code": "FR",
    "phone": "01 40 20 04 43",
    "website": "https://www.nationphoto.com/",
    "lat": 48.8597784,
    "lng": 2.3475458
  },
  {
    "name": "Analogue Wonderland",
    "address": "4a Little Shardeloes",
    "address2": null,
    "city": "Amersham",
    "state": "Bucks",
    "postal_code": "HP7OEF",
    "country_code": "GB",
    "phone": "4,47428E+11",
    "website": "http://help@analoguewonderland.co.uk",
    "lat": 51.676685,
    "lng": -0.607692
  },
  {
    "name": "Zoing Image",
    "address": "1 Sydney Street",
    "address2": null,
    "city": "Brighton",
    "state": null,
    "postal_code": "BN1 4EN",
    "country_code": "GB",
    "phone": "01273 686568",
    "website": "http://zoingimage.com/",
    "lat": 50.8269983,
    "lng": -0.1381518
  },
  {
    "name": "Bristol Cameras",
    "address": "47 High Street",
    "address2": null,
    "city": "Bristol",
    "state": null,
    "postal_code": "BS1 2Az",
    "country_code": "GB",
    "phone": "01179 140089",
    "website": "https://www.bristolcameras.co.uk/",
    "lat": 51.4547996,
    "lng": -2.5929547
  },
  {
    "name": "Steve Faktor",
    "address": "SJF Photographic 1, Ascott Avenue",
    "address2": null,
    "city": "Ealing, London",
    "state": null,
    "postal_code": "W5 3XL",
    "country_code": "GB",
    "phone": null,
    "website": "https://www.sjfphoto.co.uk/",
    "lat": 51.5126553,
    "lng": -0.3051952
  },
  {
    "name": "canister camera",
    "address": "Studio 8, Custom Lane",
    "address2": "1 Customs Wharf, Leith",
    "city": "Edinburgh",
    "state": null,
    "postal_code": "EH6 6AL.",
    "country_code": "GB",
    "phone": null,
    "website": "https://canistercameraclub.com",
    "lat": 55.9533456,
    "lng": -3.1883749
  },
  {
    "name": "Parallax Photographic",
    "address": "6 Canterbury Crescent",
    "address2": null,
    "city": "London",
    "state": null,
    "postal_code": "SW97QD",
    "country_code": "GB",
    "phone": "020 8004 8648",
    "website": "https://parallaxphotographic.coop/",
    "lat": 51.4640596,
    "lng": -0.1129921
  },
  {
    "name": "Photographers' Gallery",
    "address": "16-18 Ramillies St",
    "address2": null,
    "city": "London",
    "state": null,
    "postal_code": "W1F 7LW",
    "country_code": "GB",
    "phone": "44 (0)20 7087 9323",
    "website": "https://bookshop.thephotographersgallery.org.uk",
    "lat": 51.5074456,
    "lng": -0.1277653
  },
  {
    "name": "Fred Aldous",
    "address": "37 Lever St",
    "address2": null,
    "city": "Manchester",
    "state": null,
    "postal_code": "M1 1LW",
    "country_code": "GB",
    "phone": "0161 236 4224",
    "website": "http://fredaldous.co.uk",
    "lat": 53.4824688,
    "lng": -2.2341853
  },
  {
    "name": "The darkroom",
    "address": "Unit 9 Devonshire Business Centre",
    "address2": "Cranborne Road Ind Est.",
    "city": "Potters Bar",
    "state": "Hertfordshire",
    "postal_code": "EN6 3JR",
    "country_code": "GB",
    "phone": "01707 643953",
    "website": "https://www.thedarkroom.co.uk/",
    "lat": 51.6958889,
    "lng": -0.1848935
  },
  {
    "name": "Firstcall Photographic Limited",
    "address": "Cherry Grove Rise, West Monkton",
    "address2": null,
    "city": "Taunton, Somerset",
    "state": null,
    "postal_code": "TA2 8LW",
    "country_code": "GB",
    "phone": null,
    "website": "https://www.firstcall-photographic.co.uk/",
    "lat": 51.0521043,
    "lng": -3.0664365
  },
  {
    "name": "Magnolia Film Lab",
    "address": "8 Egnate Ninoshvili",
    "address2": null,
    "city": "Tbilisi",
    "state": "Tbilisi",
    "postal_code": "0102",
    "country_code": "GE",
    "phone": "+995 574 009 829",
    "website": "https://magnoliafilmlab.com/",
    "lat": 41.7095401,
    "lng": 44.8027226
  },
  {
    "name": "Photo Papaioakeim",
    "address": "231 Heraklion Avenue",
    "address2": "NEA IONIA",
    "city": "Athens",
    "state": null,
    "postal_code": "14231",
    "country_code": "GR",
    "phone": "+302102799767",
    "website": "https://photopapaioakeim-eshop.gr/",
    "lat": 37.9755648,
    "lng": 23.7348324
  },
  {
    "name": "camera film photo",
    "address": "Flat A, 5/F, Gee Hing Chang Industrial Building",
    "address2": "16 Cheung Yue Street, Cheung Sha Wan, Kowloon",
    "city": "Hong Kong",
    "state": null,
    "postal_code": null,
    "country_code": "HK",
    "phone": "85239552211",
    "website": "https://camerafilmphoto.com/",
    "lat": 22.2792968,
    "lng": 114.1628907
  },
  {
    "name": "I-M-ageplayground",
    "address": "Metro Atom Plaza Lt.2 Blok BKS no.37-40",
    "address2": null,
    "city": "Jakarta",
    "state": null,
    "postal_code": "10701",
    "country_code": "HK",
    "phone": "(021) 3450765",
    "website": "http://www.mlmfoto.com/",
    "lat": -6.2454573,
    "lng": 106.873215
  },
  {
    "name": "Big Panda",
    "address": "Unit 2, 10/F, Block A",
    "address2": "East Sun Industrial Center 16 Shing Yip Street",
    "city": "Kwun Tong, Kowloon",
    "state": null,
    "postal_code": null,
    "country_code": "HK",
    "phone": "852-27636337",
    "website": "https://www.pandacamera.com.hk/",
    "lat": 22.3121044,
    "lng": 114.2265117
  },
  {
    "name": "Analogue couple",
    "address": "Jalan Kutilang D3 nź 7",
    "address2": null,
    "city": "Cinere, Depok",
    "state": "West Java",
    "postal_code": "16514",
    "country_code": "ID",
    "phone": "62 (858) 888 60577",
    "website": "https://analogcouple.com",
    "lat": -6.3325074,
    "lng": 106.7892478
  },
  {
    "name": "Bokeh Cameras",
    "address": null,
    "address2": null,
    "city": "dublin",
    "state": null,
    "postal_code": null,
    "country_code": "IE",
    "phone": "0833866198",
    "website": "https://bokeh.ie/",
    "lat": 53.3493795,
    "lng": -6.2605593
  },
  {
    "name": "Ars-Imago",
    "address": "Via Caio Mario 25",
    "address2": null,
    "city": "Roma",
    "state": null,
    "postal_code": "I-00192",
    "country_code": "IT",
    "phone": "39 06 960 42 253",
    "website": "http://www.ars-imago.com",
    "lat": 41.8933203,
    "lng": 12.4829321
  },
  {
    "name": "Elvis Lives",
    "address": "Via di San Francesco a Ripa, 27",
    "address2": null,
    "city": "Roma",
    "state": null,
    "postal_code": "00153",
    "country_code": "IT",
    "phone": "645509542",
    "website": "https://elvislives.scontrinoshop.com/",
    "lat": 41.8873372,
    "lng": 12.4717104
  },
  {
    "name": "Yoshioka",
    "address": "10-22 Shimomabushicho, Kadoma",
    "address2": null,
    "city": "Osaka",
    "state": null,
    "postal_code": "571-009",
    "country_code": "JP",
    "phone": "072-884-1877",
    "website": "https://photoyoshioka.shop-pro.jp/",
    "lat": 34.6937569,
    "lng": 135.5014539
  },
  {
    "name": "Tokyo camera",
    "address": "Softwood Building 1-A",
    "address2": null,
    "city": "Tokyo",
    "state": null,
    "postal_code": "110-0016",
    "country_code": "JP",
    "phone": "03-5826-8084",
    "website": "https://www.tokyocamera.net",
    "lat": 35.6768601,
    "lng": 139.7638947
  },
  {
    "name": "champcamera",
    "address": "Tama-Plaza center building roomG",
    "address2": "5-1-3 Ustsukushigaoka Aobaku",
    "city": "Yokohama",
    "state": null,
    "postal_code": "2250002",
    "country_code": "JP",
    "phone": null,
    "website": "https://champcamera.co.jp/",
    "lat": 35.4503381,
    "lng": 139.6343802
  },
  {
    "name": "suzuki",
    "address": "〒220-0005 Kanagawa",
    "address2": "Nishi-ku, Minamisaiwai, 1-chōme−5−1 横浜ジョイナス店 1F",
    "city": "Yokohama",
    "state": null,
    "postal_code": null,
    "country_code": "JP",
    "phone": "81453231162",
    "website": "https://camesuzu.thebase.in/",
    "lat": 35.4503381,
    "lng": 139.6343802
  },
  {
    "name": "f8 camera store",
    "address": "Atria Shopping Gallery, F39, First Floor",
    "address2": "SS22/23 Damansara Jaya",
    "city": "Petaling Jaya",
    "state": null,
    "postal_code": "47400",
    "country_code": "MY",
    "phone": null,
    "website": "http://f8.com.my/",
    "lat": 3.0988792,
    "lng": 101.6454202
  },
  {
    "name": "Foto Mignon Amsterdam",
    "address": "Van Woustraat 56",
    "address2": null,
    "city": "Amsterdam",
    "state": null,
    "postal_code": "1073LN",
    "country_code": "NL",
    "phone": null,
    "website": "https://www.photobrandstore.nl/",
    "lat": 52.3559176,
    "lng": 4.9001603
  },
  {
    "name": "swiatlo czule",
    "address": "Krakowskie Przedmieście 7",
    "address2": null,
    "city": "Warszawa",
    "state": null,
    "postal_code": "00-068",
    "country_code": "PL",
    "phone": "+48 22 826 47 55",
    "website": "https://swiatloczule.com/",
    "lat": 52.2400543,
    "lng": 21.0163433
  },
  {
    "name": "Colorfoto",
    "address": "Av. Da Igreja, 39 D / E",
    "address2": null,
    "city": "Lisboa",
    "state": null,
    "postal_code": "1700-233",
    "country_code": "PT",
    "phone": "21 312 94 91",
    "website": "https://www.colorfoto.pt/",
    "lat": 38.7528433,
    "lng": -9.1446745
  },
  {
    "name": "Câmaras e Companhia",
    "address": "Rua Mártires da Liberdade, 77",
    "address2": null,
    "city": "Porto",
    "state": null,
    "postal_code": "4050-361",
    "country_code": "PT",
    "phone": "220 935 471",
    "website": "https://camarasecompanhia.com",
    "lat": 41.1512331,
    "lng": -8.6140735
  },
  {
    "name": "Embaixada Porto",
    "address": "Praça de Carlos Alberto 121",
    "address2": null,
    "city": "Porto",
    "state": null,
    "postal_code": "4050-159",
    "country_code": "PT",
    "phone": "351 912 133 034",
    "website": "https://loja.embaixadaporto.com/es/",
    "lat": 41.1476432,
    "lng": -8.6158543
  },
  {
    "name": "Sagrada Película",
    "address": "Rua do Casal, n.º30",
    "address2": null,
    "city": "Sever do Vouga",
    "state": null,
    "postal_code": "3740-270",
    "country_code": "PT",
    "phone": "913 000 135",
    "website": "https://lab.sagradapelicula.com/",
    "lat": 40.7341518,
    "lng": -8.3700099
  },
  {
    "name": "wonderfoto",
    "address": "Unix Leninthev Street 35-1-128",
    "address2": null,
    "city": "Moscow",
    "state": null,
    "postal_code": "109390",
    "country_code": "RU",
    "phone": null,
    "website": "http://wonderfoto.ru",
    "lat": 55.625578,
    "lng": 37.6063916
  },
  {
    "name": "Sweet Film Bar",
    "address": "1465. Ekachai Road",
    "address2": null,
    "city": "Bangbon, Bangkok",
    "state": null,
    "postal_code": "10150",
    "country_code": "TH",
    "phone": null,
    "website": "https://www.facebook.com/sweetfilmbar",
    "lat": 13.6463863,
    "lng": 100.3734887
  },
  {
    "name": "camera garage",
    "address": "2/123 Changwattana 14 Rd",
    "address2": "Donmuang, Laksi",
    "city": "Bangkok",
    "state": null,
    "postal_code": "10210",
    "country_code": "TH",
    "phone": "66 8912345678",
    "website": "http://www.camera-garage.com/",
    "lat": 13.7524938,
    "lng": 100.4935089
  },
  {
    "name": "Filmtastic photographer's lounge",
    "address": "1/4 Phahonyothin 7 Alley (Ari Soi 2)",
    "address2": "Khwaeng Samsen Nai",
    "city": "Bangkok",
    "state": null,
    "postal_code": "10400",
    "country_code": "TH",
    "phone": "090 982 8738",
    "website": "https://www.filmtastic-bangkok.com/",
    "lat": 13.7524938,
    "lng": 100.4935089
  },
  {
    "name": "afilm",
    "address": "188 Soi Vibhavadi Rangsit 16",
    "address2": "Khwaeng Din Daeng, Khet Din Daeng",
    "city": "Krung Thep Maha Nakh",
    "state": null,
    "postal_code": "10400",
    "country_code": "TH",
    "phone": "891257299",
    "website": "http://afilm.me",
    "lat": 13.7340004,
    "lng": 100.5015145
  },
  {
    "name": "Lert's",
    "address": "20/2 Rama I Rd, Khwaeng Wang Mai, Khet Pathum Wan",
    "address2": null,
    "city": "Krung Thep Maha Nakhon",
    "state": null,
    "postal_code": "10330",
    "country_code": "TH",
    "phone": null,
    "website": "https://www.instagram.com/lerts.bkk/",
    "lat": 13.7462923,
    "lng": 100.5307767
  },
  {
    "name": "Rollboo.film",
    "address": "Zelle Condo 750/6 Building 4, Bang Kra-So",
    "address2": null,
    "city": "Mueang Nonthaburi, Nonthaburi",
    "state": null,
    "postal_code": "11000",
    "country_code": "TH",
    "phone": null,
    "website": "https://www.instagram.com/rollboo.film/?hl=en",
    "lat": 13.8537893,
    "lng": 100.4941165
  },
  {
    "name": "Fotovramke",
    "address": "Ivana Franko street, bld. 20A",
    "address2": null,
    "city": "Kiev",
    "state": null,
    "postal_code": "1030",
    "country_code": "UA",
    "phone": null,
    "website": "https://www.fotovramke.com/",
    "lat": 50.4500336,
    "lng": 30.5241361
  },
  {
    "name": "Dan’s Camera City",
    "address": "1439 W. Fairmont St.",
    "address2": null,
    "city": "Allentown",
    "state": "Pensilvania",
    "postal_code": "18102",
    "country_code": "US",
    "phone": "(610) 434-2313",
    "website": "https://danscamera.com/",
    "lat": 40.6022552,
    "lng": -75.4716115
  },
  {
    "name": "Camera Mall",
    "address": "518 EAST WASHINGTON ST",
    "address2": null,
    "city": "Ann Arbor",
    "state": "MI",
    "postal_code": "48104",
    "country_code": "US",
    "phone": "734-997-5031",
    "website": "https://cameramall.com/",
    "lat": 42.2802474,
    "lng": -83.742965
  },
  {
    "name": "Ace Photo",
    "address": "44710 Cape Ct Suite 122",
    "address2": null,
    "city": "Ashburn",
    "state": "VA",
    "postal_code": "20147",
    "country_code": "US",
    "phone": "1 703-430-3333",
    "website": "https://acephoto.net/",
    "lat": 31.7059751,
    "lng": -83.6535591
  },
  {
    "name": "Professional Photo Resource",
    "address": "667 11TH ST NW",
    "address2": null,
    "city": "Atlanta",
    "state": "GA",
    "postal_code": "30318",
    "country_code": "US",
    "phone": "404-885-1885",
    "website": "https://ppratlanta.com/",
    "lat": 33.7834369,
    "lng": -84.4090781
  },
  {
    "name": "Austin Camera & Imaging",
    "address": "5350 Burnet Road, STE 8",
    "address2": null,
    "city": "Austin",
    "state": "TX",
    "postal_code": "78756",
    "country_code": "US",
    "phone": "512-407-9280",
    "website": "https://austincamera.com/",
    "lat": 30.2711286,
    "lng": -97.7436995
  },
  {
    "name": "Holland Photo Imaging",
    "address": "2125-A Goodrich Avenue",
    "address2": null,
    "city": "Austin",
    "state": "TX",
    "postal_code": "78704",
    "country_code": "US",
    "phone": "877-310-8703",
    "website": "https://www.hollandphoto.com/",
    "lat": 30.2507394,
    "lng": -97.7720492
  },
  {
    "name": "Precision Camera Inc",
    "address": "2438 W Anderson Ln",
    "address2": null,
    "city": "Austin",
    "state": "TX",
    "postal_code": "78757",
    "country_code": "US",
    "phone": "512-467-7676",
    "website": "https://www.precision-camera.com/",
    "lat": 30.3578086,
    "lng": -97.732245
  },
  {
    "name": "The Pixel Connection",
    "address": "2100 Center Rd",
    "address2": null,
    "city": "Avon",
    "state": "OH",
    "postal_code": "44011",
    "country_code": "US",
    "phone": "440-934-1544",
    "website": "https://www.thepixelconnection.com/",
    "lat": 41.457918,
    "lng": -82.0214233
  },
  {
    "name": "Service Photo Supply",
    "address": "3838 Falls Road",
    "address2": null,
    "city": "Baltimore",
    "state": "MA",
    "postal_code": "21211",
    "country_code": "US",
    "phone": "(410) 235-6200",
    "website": "https://servicephoto.com/",
    "lat": 39.3345501,
    "lng": -76.6362922
  },
  {
    "name": "Quicksilver Photo Lab",
    "address": "1417 Cornwall Avenue",
    "address2": null,
    "city": "Bellingham",
    "state": "WA",
    "postal_code": "98225",
    "country_code": "US",
    "phone": "360-676-2725",
    "website": "https://www.quicksilverphotolab.com/",
    "lat": 48.7514628,
    "lng": -122.4769588
  },
  {
    "name": "Peters Camera Shop",
    "address": "38 S Washington Ave",
    "address2": null,
    "city": "Bergenfield",
    "state": "NJ",
    "postal_code": "07621",
    "country_code": "US",
    "phone": "201-384-1749",
    "website": null,
    "lat": 40.9266313,
    "lng": -73.996552
  },
  {
    "name": "Looking Glass Photo",
    "address": "1045 Ashby Ave",
    "address2": null,
    "city": "Berkeley",
    "state": "CA",
    "postal_code": "94710",
    "country_code": "US",
    "phone": "510-548-6888",
    "website": "https://www.lookingglassphoto.com/",
    "lat": 37.8525105,
    "lng": -122.287793
  },
  {
    "name": "Woodward Camera",
    "address": "33501 Woodward Ave.",
    "address2": null,
    "city": "Birmingham",
    "state": "MI",
    "postal_code": "48009",
    "country_code": "US",
    "phone": "248-642-1985",
    "website": "https://woodwardcamera.com/",
    "lat": 42.5353879,
    "lng": -83.2037014
  },
  {
    "name": "Griffy's Art Supply",
    "address": "25 West Kirkwood Ave",
    "address2": null,
    "city": "Bloomington",
    "state": "IN",
    "postal_code": "47404",
    "country_code": "US",
    "phone": "812-272-1502",
    "website": "https://griffysartsupply.com/",
    "lat": 39.1666555,
    "lng": -86.5441588
  },
  {
    "name": "Timeless Photo",
    "address": "1455 N Cole Rd",
    "address2": null,
    "city": "Boise",
    "state": "ID",
    "postal_code": "83704",
    "country_code": "US",
    "phone": "208-343-4501",
    "website": "https://www.timelessphotoboise.com/",
    "lat": 43.618151,
    "lng": -116.274326
  },
  {
    "name": "Mike's Camera Inc",
    "address": "2500 Pearl Street",
    "address2": null,
    "city": "Boulder",
    "state": "CO",
    "postal_code": "80302",
    "country_code": "US",
    "phone": "303-443-1715",
    "website": "https://mikescamera.com/",
    "lat": 40.0211607,
    "lng": -105.2626544
  },
  {
    "name": "The Photo Center",
    "address": "1930 Rte 88",
    "address2": null,
    "city": "Bricktown",
    "state": "NJ",
    "postal_code": "08724",
    "country_code": "US",
    "phone": "732-840-1333",
    "website": "https://thephotocenter.com/",
    "lat": 42.3334554,
    "lng": -83.041169
  },
  {
    "name": "Mike Crivello Camera Centers Inc",
    "address": "18110 W Bluemound Rd",
    "address2": null,
    "city": "Brookfield",
    "state": "WI",
    "postal_code": "53045",
    "country_code": "US",
    "phone": "262-782-4303",
    "website": "https://www.mikecrivellos.com/",
    "lat": 43.0372525,
    "lng": -88.1385092
  },
  {
    "name": "Focus Camera",
    "address": "895 McDonald Ave",
    "address2": null,
    "city": "Brooklyn",
    "state": "NY",
    "postal_code": "11218",
    "country_code": "US",
    "phone": "718-431-7900",
    "website": "https://www.focuscamera.com/",
    "lat": 40.6319706,
    "lng": -73.976977
  },
  {
    "name": "Photo4Less",
    "address": "1833 54TH ST",
    "address2": null,
    "city": "Brooklyn",
    "state": "NY",
    "postal_code": "11204",
    "country_code": "US",
    "phone": "718-851-3510",
    "website": "https://www.photo4less.com/",
    "lat": 40.6250543,
    "lng": -73.9829803
  },
  {
    "name": "Photodom Llc",
    "address": "1717 Broadway #310",
    "address2": null,
    "city": "Brooklyn",
    "state": "NY",
    "postal_code": "11207",
    "country_code": "US",
    "phone": "347-365-5660",
    "website": "https://photodom.shop/",
    "lat": 40.6526006,
    "lng": -73.9497211
  },
  {
    "name": "Cam Photo & Imaging",
    "address": "519 N GLENOAKS BLVD",
    "address2": null,
    "city": "Burbank",
    "state": "CA",
    "postal_code": "91502",
    "country_code": "US",
    "phone": "818-841-5011",
    "website": "https://www.camphotobur.com/",
    "lat": 34.1861403,
    "lng": -118.3105968
  },
  {
    "name": "District Camera Imaging",
    "address": "6025-G Burke Centre Pkwy.",
    "address2": null,
    "city": "Burke",
    "state": "VA",
    "postal_code": "22015",
    "country_code": "US",
    "phone": "877-374-6869",
    "website": "https://www.districtcamera.com/",
    "lat": 33.0482247,
    "lng": -81.9575983
  },
  {
    "name": "Lezot Camera",
    "address": "180 Main St",
    "address2": null,
    "city": "Burlington",
    "state": "VT",
    "postal_code": "05401",
    "country_code": "US",
    "phone": "802-652-2400",
    "website": "https://www.lezotcameras.com/",
    "lat": 44.4761586,
    "lng": -73.2119194
  },
  {
    "name": "Vans Camera Inc",
    "address": "4920 Whipple Ave NW",
    "address2": null,
    "city": "Canton",
    "state": "OH",
    "postal_code": "44718",
    "country_code": "US",
    "phone": "330-493-3534",
    "website": "http://vanscamera.com/",
    "lat": 40.8644315,
    "lng": -81.4225325
  },
  {
    "name": "Southeastern Camera",
    "address": "205 WEST MAIN ST",
    "address2": null,
    "city": "Carrboro",
    "state": "NC",
    "postal_code": "27510",
    "country_code": "US",
    "phone": "919-933-7757",
    "website": "https://www.secamera.com/",
    "lat": 35.9105368,
    "lng": -79.0762824
  },
  {
    "name": "Southeastern Camera & Supply Inc Carrboro",
    "address": "205 West Main Street",
    "address2": null,
    "city": "Carrboro",
    "state": "NC",
    "postal_code": "27510",
    "country_code": "US",
    "phone": "919-933-7757",
    "website": "http://www.secamera.com/",
    "lat": 35.9105368,
    "lng": -79.0762824
  },
  {
    "name": "Biggs Camera",
    "address": "805 S King Dr",
    "address2": null,
    "city": "Charlotte",
    "state": "NC",
    "postal_code": "28204",
    "country_code": "US",
    "phone": "704-377-3492",
    "website": "https://biggscamera.com/",
    "lat": 35.1039547,
    "lng": -80.8602112
  },
  {
    "name": "Central Camera Co",
    "address": "230 S WABASH AVE",
    "address2": null,
    "city": "Chicago",
    "state": "IL",
    "postal_code": "60604",
    "country_code": "US",
    "phone": "800-421-1899",
    "website": "https://centralcamera.com/",
    "lat": 41.8785917,
    "lng": -87.6263241
  },
  {
    "name": "Dodd Camera",
    "address": "2077 EAST 30TH STREET",
    "address2": null,
    "city": "Cleveland",
    "state": "OH",
    "postal_code": "44115",
    "country_code": "US",
    "phone": "855-544-1705",
    "website": "https://doddcamera.com/",
    "lat": 41.5002424,
    "lng": -81.6664664
  },
  {
    "name": "Mcalister Photowork",
    "address": "6646 Sawmill Rd.",
    "address2": null,
    "city": "Columbus",
    "state": "OH",
    "postal_code": "43235",
    "country_code": "US",
    "phone": "614- 766-1865",
    "website": "https://www.mcalisterphotoworks.com/",
    "lat": 40.1027983,
    "lng": -83.0895499
  },
  {
    "name": "Midwest Photo",
    "address": "2887 Silver Drive",
    "address2": null,
    "city": "Columbus",
    "state": "OH",
    "postal_code": "43211",
    "country_code": "US",
    "phone": "614-261-1264",
    "website": "https://mpex.com/",
    "lat": 40.0230356,
    "lng": -82.9958282
  },
  {
    "name": "World Of Used Photography",
    "address": "1043 W. 3rd Ave",
    "address2": null,
    "city": "Columbus",
    "state": "OH",
    "postal_code": "43212",
    "country_code": "US",
    "phone": "614-827-5047",
    "website": "https://www.worldofusedphotography.com/",
    "lat": 39.9845519,
    "lng": -83.0338044
  },
  {
    "name": "Don's Used Photo",
    "address": "2731 Irving Boulevard",
    "address2": null,
    "city": "Dallas",
    "state": "TX",
    "postal_code": "75207",
    "country_code": "US",
    "phone": "214 630 4062",
    "website": "http://donsphotoequipment.com/",
    "lat": 32.8044435,
    "lng": -96.8443121
  },
  {
    "name": "Focal Point Photography",
    "address": "161 W. Ellendale",
    "address2": null,
    "city": "Dallas",
    "state": "OR",
    "postal_code": "97338",
    "country_code": "US",
    "phone": "503-623-6300",
    "website": "https://www.focalpointphoto.com/",
    "lat": 44.9304173,
    "lng": -123.3038353
  },
  {
    "name": "Thacker's Film Lab",
    "address": "805 SE 1ST WAY #3",
    "address2": null,
    "city": "Deerfield Beach",
    "state": "FL",
    "postal_code": "33441",
    "country_code": "US",
    "phone": "754-422-5601",
    "website": "https://www.thackersfilmlab.com/",
    "lat": 26.318342,
    "lng": -80.0996306
  },
  {
    "name": "Delray Camera And Studio",
    "address": "217 NE 4 th Ave , FL 33483",
    "address2": null,
    "city": "Delray Beach",
    "state": "FL",
    "postal_code": "33483",
    "country_code": "US",
    "phone": "561-278-3331",
    "website": "https://www.facebook.com/delraycamera",
    "lat": 26.4614625,
    "lng": -80.0728201
  },
  {
    "name": "Dunwoody Photo",
    "address": "5500 CHAMBLEE DUNWOODY RD",
    "address2": null,
    "city": "Dunwoody",
    "state": "GA",
    "postal_code": "30338",
    "country_code": "US",
    "phone": "678-320-0202",
    "website": "https://www.dunwoodyphoto.com/",
    "lat": 33.9486669,
    "lng": -84.3359952
  },
  {
    "name": "Sharp Photo",
    "address": "3306 Mall Drive",
    "address2": null,
    "city": "Eau Claire",
    "state": "WI",
    "postal_code": "54701",
    "country_code": "US",
    "phone": "715-834-6588",
    "website": "https://www.sharpphoto.net/",
    "lat": 44.7853504,
    "lng": -91.4611042
  },
  {
    "name": "Englewood Camera",
    "address": "5855 S. Broadway",
    "address2": null,
    "city": "Englewood",
    "state": "CO",
    "postal_code": "80121",
    "country_code": "US",
    "phone": "303-797-0700",
    "website": "https://englewoodcamera.com/",
    "lat": 39.6182416,
    "lng": -104.9880304
  },
  {
    "name": "Unique Photo",
    "address": "123 US HIGHWAY 46",
    "address2": null,
    "city": "Fairfield",
    "state": "NJ",
    "postal_code": "07004",
    "country_code": "US",
    "phone": "800-631-0300",
    "website": "https://www.uniquephoto.com/",
    "lat": 39.7886111,
    "lng": -82.6418883
  },
  {
    "name": "Film Photography Project Llc",
    "address": "PO BOX 264",
    "address2": null,
    "city": "Fairlawn",
    "state": "NJ",
    "postal_code": "07410",
    "country_code": "US",
    "phone": null,
    "website": "https://filmphotographyproject.com/",
    "lat": 41.1326644,
    "lng": -81.6262051
  },
  {
    "name": "Horn Photo",
    "address": "7899 N. BLACKSTONE AVE.",
    "address2": null,
    "city": "Fresno",
    "state": "CA",
    "postal_code": "93720",
    "country_code": "US",
    "phone": "559-225-5080",
    "website": "https://hornphoto.com/",
    "lat": 36.8500477,
    "lng": -119.794264
  },
  {
    "name": "Garland Camera",
    "address": "1401 Northwest Highway",
    "address2": null,
    "city": "Garland",
    "state": "TX",
    "postal_code": "75041",
    "country_code": "US",
    "phone": "972-278-0717",
    "website": "https://www.garlandcamera.net/",
    "lat": 32.8646594,
    "lng": -96.6487826
  },
  {
    "name": "National Camera Exchange",
    "address": "9300 Olson Memorial Highway",
    "address2": null,
    "city": "Golden Valley",
    "state": "MN",
    "postal_code": "55427",
    "country_code": "US",
    "phone": "763-546-6831",
    "website": "https://www.natcam.com/",
    "lat": 44.9842702,
    "lng": -93.3982597
  },
  {
    "name": "Treehouse",
    "address": "675 Auahi Street E3-215",
    "address2": null,
    "city": "Honolulu",
    "state": "Hawaii",
    "postal_code": "96813",
    "country_code": "US",
    "phone": "808-597-TREE (8733)",
    "website": "https://treehouse-shop.com/",
    "lat": 21.304547,
    "lng": -157.855676
  },
  {
    "name": "Flats Llc.",
    "address": "2402 Montrose Blvd",
    "address2": null,
    "city": "Houston",
    "state": "TX",
    "postal_code": "77006",
    "country_code": "US",
    "phone": "832-895-9845",
    "website": "https://www.flatspresents.com/",
    "lat": 29.7479295,
    "lng": -95.3922968
  },
  {
    "name": "Houston Camera Exchange",
    "address": "5900 Richmond Ave",
    "address2": null,
    "city": "Houston",
    "state": "TX",
    "postal_code": "77057",
    "country_code": "US",
    "phone": "800-CAMERA-5",
    "website": "https://www.houstoncameraexchange.com/",
    "lat": 29.7319745,
    "lng": -95.4826255
  },
  {
    "name": "Jack's Cameras Inc",
    "address": "2755 Philmont Ave",
    "address2": null,
    "city": "Huntingdon Valley",
    "state": "PA",
    "postal_code": "19006",
    "country_code": "US",
    "phone": "215-969-5101",
    "website": "https://www.cameraspot.com/",
    "lat": 40.1225616,
    "lng": -75.0473635
  },
  {
    "name": "Bill's Camera",
    "address": "6022 WARNER AVE",
    "address2": null,
    "city": "Huntington Beach",
    "state": "CA",
    "postal_code": "92647",
    "country_code": "US",
    "phone": "714-842-8801",
    "website": "https://www.facebook.com/Bills-Camera-1858789647577806/",
    "lat": 33.7152828,
    "lng": -118.0233843
  },
  {
    "name": "roberts",
    "address": "220 E Saint Clair St",
    "address2": null,
    "city": "Indianapolis",
    "state": null,
    "postal_code": "IN 46204",
    "country_code": "US",
    "phone": "8772816405",
    "website": "http://robertsdistributors.com/",
    "lat": 39.778123,
    "lng": -86.1530869
  },
  {
    "name": "Roberts Camera",
    "address": "220 E St Clair St",
    "address2": null,
    "city": "Indianapolis",
    "state": "IN",
    "postal_code": "46204",
    "country_code": "US",
    "phone": "1-317-636-5544",
    "website": "https://robertscamera.com/",
    "lat": 39.778123,
    "lng": -86.1530869
  },
  {
    "name": "Pro Photo Connection Inc",
    "address": "17671 FITCH",
    "address2": null,
    "city": "Irvine",
    "state": "CA",
    "postal_code": "92614",
    "country_code": "US",
    "phone": "949-250-7073",
    "website": "https://www.prophotoconnection.com/",
    "lat": 33.6949736,
    "lng": -117.8595666
  },
  {
    "name": "F32",
    "address": "7933 Ray Mears Blvd",
    "address2": null,
    "city": "Knoxville",
    "state": "TN",
    "postal_code": "37919",
    "country_code": "US",
    "phone": "865-934-0909",
    "website": "https://www.f32photo.com/",
    "lat": 35.9244936,
    "lng": -84.0429152
  },
  {
    "name": "Cardinal Camera",
    "address": "810 West Second Street",
    "address2": null,
    "city": "Lansdale",
    "state": "PA",
    "postal_code": "19446",
    "country_code": "US",
    "phone": "215-608-0402",
    "website": "https://cardinalcamera.com/",
    "lat": 40.2414952,
    "lng": -75.2837862
  },
  {
    "name": "Cardinal Camera & Video",
    "address": "810 W. 2ND STREET",
    "address2": null,
    "city": "Lansdale",
    "state": "PA",
    "postal_code": "19446",
    "country_code": "US",
    "phone": "215-855-4818",
    "website": "https://www.cardinalcamera.com/",
    "lat": 40.247813,
    "lng": -75.2920328
  },
  {
    "name": "B&C Camera",
    "address": "4511 West Sahara Avenue",
    "address2": null,
    "city": "Las Vegas",
    "state": "NV",
    "postal_code": "89102",
    "country_code": "US",
    "phone": "702-871-1100",
    "website": "https://store.bandccamera.com/",
    "lat": 36.1446401,
    "lng": -115.2012949
  },
  {
    "name": "Englewood Camera",
    "address": "5855 S. BROADWAY",
    "address2": null,
    "city": "Littleton",
    "state": "CO",
    "postal_code": "80121",
    "country_code": "US",
    "phone": "303-797-0700",
    "website": "https://englewoodcamera.com/",
    "lat": 39.6105288,
    "lng": -104.9881756
  },
  {
    "name": "Tuttle Cameras",
    "address": "5467 E. Carson St",
    "address2": null,
    "city": "Long Beach",
    "state": "CA",
    "postal_code": "90808",
    "country_code": "US",
    "phone": "562-354-6080",
    "website": "https://www.tuttlecameras.com/",
    "lat": 33.8317558,
    "lng": -118.215402
  },
  {
    "name": "Freestyle",
    "address": "5124 Sunset Blvd",
    "address2": null,
    "city": "Los Angeles",
    "state": "CA",
    "postal_code": "90027",
    "country_code": "US",
    "phone": "(800) 292-6137",
    "website": "https://www.freestylephoto.biz/",
    "lat": 34.0976965,
    "lng": -118.2864125
  },
  {
    "name": "Samy's Camera",
    "address": "431 S. Fairfax Ave.",
    "address2": null,
    "city": "Los Angeles",
    "state": "CA",
    "postal_code": "90036",
    "country_code": "US",
    "phone": "1 800-321-4726",
    "website": "https://www.facebook.com/SamysOfficial/",
    "lat": 34.0689074,
    "lng": -118.3617133
  },
  {
    "name": "The Quiet Life",
    "address": "1447 HILL DR",
    "address2": null,
    "city": "Los Angeles",
    "state": "CA",
    "postal_code": "90041",
    "country_code": "US",
    "phone": "323-252-6213",
    "website": "http://thequietlife.com/",
    "lat": 34.144535,
    "lng": -118.1964975
  },
  {
    "name": "The Print Refinery",
    "address": "9451 Westport Road, Suite #119",
    "address2": null,
    "city": "Louisville",
    "state": "KY",
    "postal_code": "40241",
    "country_code": "US",
    "phone": "502-339-1999",
    "website": "https://louisvilleeast.theprintrefinery.com/",
    "lat": 38.2542376,
    "lng": -85.759407
  },
  {
    "name": "Madison Photo",
    "address": "40 MAIN ST",
    "address2": null,
    "city": "Madison",
    "state": "NJ",
    "postal_code": "07940",
    "country_code": "US",
    "phone": "973-966-2900",
    "website": "https://madisonphoto.com/",
    "lat": 40.7594415,
    "lng": -74.415808
  },
  {
    "name": "Marfa Film Shop",
    "address": "902 West San Antonio St, PO Box 878",
    "address2": null,
    "city": "Marfa",
    "state": "TX",
    "postal_code": "79843",
    "country_code": "US",
    "phone": "432-244-4682",
    "website": "https://www.marfafilmshop.com/",
    "lat": 30.3117621,
    "lng": -104.023146
  },
  {
    "name": "Pitman Photo Supply",
    "address": "14321 SOUTH DIXIE HWY",
    "address2": null,
    "city": "Miami",
    "state": "FL",
    "postal_code": "33176",
    "country_code": "US",
    "phone": "305-256-9558",
    "website": "http://pitmanphotosupply.com/",
    "lat": 25.6370321,
    "lng": -80.3368477
  },
  {
    "name": "Milford Photo Inc",
    "address": "22 River St",
    "address2": null,
    "city": "Milford",
    "state": "CT",
    "postal_code": "06460",
    "country_code": "US",
    "phone": "800-211-8086",
    "website": "https://www.milfordphoto.com/",
    "lat": 41.2227305,
    "lng": -73.0573044
  },
  {
    "name": "Millburn Camera",
    "address": "41 Main St",
    "address2": null,
    "city": "Millburn",
    "state": "NJ",
    "postal_code": "07041",
    "country_code": "US",
    "phone": "973-379-1313",
    "website": "https://www.njcamera.com/",
    "lat": 40.7241707,
    "lng": -74.3074112
  },
  {
    "name": "Retrospekt",
    "address": "811 E Vienna Ave, suite 100",
    "address2": null,
    "city": "Milwaukee",
    "state": "WI",
    "postal_code": "53212",
    "country_code": "US",
    "phone": "414 897 8670",
    "website": "https://retrospekt.com/",
    "lat": 43.0386475,
    "lng": -87.9090751
  },
  {
    "name": "Oc Camera",
    "address": "27680-B Marguerite Pkwy",
    "address2": null,
    "city": "Mission Viejo",
    "state": "CA",
    "postal_code": "92692",
    "country_code": "US",
    "phone": "949-347-1276",
    "website": "https://www.occamera.com/",
    "lat": 33.5965685,
    "lng": -117.659405
  },
  {
    "name": "Calagaz Photo Supply",
    "address": "90 SPRINGDALE BLVD",
    "address2": null,
    "city": "Mobile",
    "state": "AL",
    "postal_code": "36606",
    "country_code": "US",
    "phone": "251-478-0487",
    "website": "https://calagaz.com/",
    "lat": 30.685997,
    "lng": -88.1234563
  },
  {
    "name": "Mark's Photo & Video",
    "address": "2634 HENRY ST",
    "address2": null,
    "city": "Muskegon",
    "state": "MI",
    "postal_code": "49441-3508",
    "country_code": "US",
    "phone": "616-534-8688",
    "website": "http://marksphotoandvideo.com/",
    "lat": 43.2044661,
    "lng": -86.2629776
  },
  {
    "name": "Dury's",
    "address": "1027 Murfreesboro Pike",
    "address2": null,
    "city": "Nashville",
    "state": "TN",
    "postal_code": "37217",
    "country_code": "US",
    "phone": "(615) 255-3456",
    "website": "https://durys.com/",
    "lat": 36.1288583,
    "lng": -86.7140358
  },
  {
    "name": "Safelight Imaging Llc",
    "address": "4320 Kenilwood Dr, Ste 105",
    "address2": null,
    "city": "Nashville",
    "state": "TN",
    "postal_code": "37204",
    "country_code": "US",
    "phone": "615-649-8830",
    "website": "https://www.safelightimaging.com/",
    "lat": 36.1622767,
    "lng": -86.7742984
  },
  {
    "name": "Adorama Inc",
    "address": "42 WEST 18TH STREET",
    "address2": null,
    "city": "New York",
    "state": "NY",
    "postal_code": "10011",
    "country_code": "US",
    "phone": "800-223-2500",
    "website": "https://www.adorama.com/",
    "lat": 40.7393502,
    "lng": -73.9940627
  },
  {
    "name": "B&H Photo And Electronics",
    "address": "420 9TH AVENUE",
    "address2": null,
    "city": "New York",
    "state": "NY",
    "postal_code": "10001",
    "country_code": "US",
    "phone": "866-766-6861",
    "website": "https://www.bhphotovideo.com/",
    "lat": 40.7531288,
    "lng": -73.9961373
  },
  {
    "name": "K&M Camera",
    "address": "54 Orchard St",
    "address2": null,
    "city": "New York",
    "state": "NY",
    "postal_code": "10002",
    "country_code": "US",
    "phone": "800-343-9826",
    "website": "https://kmcamera.com/",
    "lat": 40.7165969,
    "lng": -73.9907662
  },
  {
    "name": "Pro Image Photo",
    "address": "2510 Broadway",
    "address2": null,
    "city": "New York",
    "state": "NY",
    "postal_code": "10025",
    "country_code": "US",
    "phone": "212-222-6001",
    "website": "https://proimagephoto.com/",
    "lat": 40.7929693,
    "lng": -73.9726732
  },
  {
    "name": "Rockbrook Camera",
    "address": "2909 S. 169th Plaza Ste 100",
    "address2": null,
    "city": "Omaha",
    "state": "NE",
    "postal_code": "68130",
    "country_code": "US",
    "phone": "402-691-0003",
    "website": "https://www.rockbrookcamera.com/",
    "lat": 41.2587459,
    "lng": -95.9383758
  },
  {
    "name": "Allen's Camera",
    "address": "626 North State Street",
    "address2": null,
    "city": "Orem",
    "state": "UT",
    "postal_code": "84057",
    "country_code": "US",
    "phone": "801-224-0006",
    "website": "https://allenscamera.net/",
    "lat": 40.2981599,
    "lng": -111.6944313
  },
  {
    "name": "The Find Lab",
    "address": "170 MOUNTAIN WAY DR #107",
    "address2": null,
    "city": "Orem",
    "state": "UT",
    "postal_code": "84058",
    "country_code": "US",
    "phone": "808-589-8058",
    "website": "https://thefindlab.com/",
    "lat": 40.2981599,
    "lng": -111.6944313
  },
  {
    "name": "Colonial Photo & Hobby",
    "address": "634 N Mills Ave",
    "address2": null,
    "city": "Orlando",
    "state": "FL",
    "postal_code": "32803",
    "country_code": "US",
    "phone": "407-841-1485",
    "website": "http://www.cphfun.com",
    "lat": 28.5524527,
    "lng": -81.3645304
  },
  {
    "name": "Camera Casino",
    "address": "439 N. Main St.",
    "address2": null,
    "city": "Oshkosh",
    "state": "WI",
    "postal_code": "54901",
    "country_code": "US",
    "phone": "920-233-2424",
    "website": "https://www.cameracasino.com/",
    "lat": 44.018552,
    "lng": -88.5376277
  },
  {
    "name": "Aaafotofast",
    "address": "17029 S. DIXIE HWY",
    "address2": null,
    "city": "Palmetto Bay",
    "state": "FL",
    "postal_code": "33157",
    "country_code": "US",
    "phone": "305-255-2656",
    "website": "https://www.aaafotofast.com/",
    "lat": 25.6114892,
    "lng": -80.3482046
  },
  {
    "name": "Unique Photo Philadelphia",
    "address": "28 South 2nd Street",
    "address2": null,
    "city": "Philadelphia",
    "state": "Pensilvania",
    "postal_code": "19106",
    "country_code": "US",
    "phone": "(215) 608-2222",
    "website": "https://www.uniquephoto.com//",
    "lat": 39.9492874,
    "lng": -75.1442127
  },
  {
    "name": "Phoenix Photo Labs",
    "address": "2212 E McDowell Road",
    "address2": null,
    "city": "Phoenix",
    "state": "AZ",
    "postal_code": "85044",
    "country_code": "US",
    "phone": "602-466-1303",
    "website": "https://phoenixphotolab.com/",
    "lat": 33.4662431,
    "lng": -112.0339868
  },
  {
    "name": "Bankrupt Bodega Llc.",
    "address": "4120 Main St.",
    "address2": null,
    "city": "Pittsburgh",
    "state": "PA",
    "postal_code": "15224",
    "country_code": "US",
    "phone": "412-802-6397",
    "website": "https://www.bankruptbodega.com/",
    "lat": 40.4650685,
    "lng": -79.9545381
  },
  {
    "name": "Bernie's Photo",
    "address": "523 E Ohio St",
    "address2": null,
    "city": "Pittsburgh",
    "state": "PA",
    "postal_code": "15212",
    "country_code": "US",
    "phone": "412-231-1717",
    "website": "https://www.berniesphoto.com/",
    "lat": 40.453475,
    "lng": -80.0001645
  },
  {
    "name": "Premier Imaging & Camera",
    "address": "4801 McKnight Rd",
    "address2": null,
    "city": "Pittsburgh",
    "state": "Pennsylvania",
    "postal_code": "15237",
    "country_code": "US",
    "phone": "+1 412-364-1815",
    "website": "https://www.premierimagingpgh.com/",
    "lat": 40.5226822,
    "lng": -80.006533
  },
  {
    "name": "Pro Photo Supply Inc",
    "address": "1112 NW 19TH AVE",
    "address2": null,
    "city": "Portland",
    "state": "OR",
    "postal_code": "97209",
    "country_code": "US",
    "phone": "503-241-1112",
    "website": "https://prophotosupply.com/",
    "lat": 45.5309513,
    "lng": -122.690229
  },
  {
    "name": "The Shutterbug",
    "address": "714 SW Washington Street",
    "address2": null,
    "city": "Portland",
    "state": "OR",
    "postal_code": "97205",
    "country_code": "US",
    "phone": "503-364-8044",
    "website": "https://www.theshutterbug.com/",
    "lat": 45.520695,
    "lng": -122.6793692
  },
  {
    "name": "Peace Camera",
    "address": "5039 Falls of Neuse Road",
    "address2": null,
    "city": "Raleigh",
    "state": "NC",
    "postal_code": "27609",
    "country_code": "US",
    "phone": "919-836-2222",
    "website": "https://www.peacecamera.com/",
    "lat": 35.8496386,
    "lng": -78.6147539
  },
  {
    "name": "Southeastern Camera",
    "address": "2410 Atlantic Ave",
    "address2": null,
    "city": "Raleigh",
    "state": "NC",
    "postal_code": "27604",
    "country_code": "US",
    "phone": "919-890-4484",
    "website": "https://www.southeasterncamera.com/",
    "lat": 35.8117775,
    "lng": -78.6188058
  },
  {
    "name": "Richmond Camera Shop Inc",
    "address": "3128 West Cary Street",
    "address2": null,
    "city": "Richmond",
    "state": "VA",
    "postal_code": "23221",
    "country_code": "US",
    "phone": "804-355-5793",
    "website": "https://www.richmondcamera.com/",
    "lat": 37.5537642,
    "lng": -77.4811537
  },
  {
    "name": "Rockville Camera",
    "address": "265 Sunrise Hwy",
    "address2": null,
    "city": "Rockville Ctre",
    "state": "NY",
    "postal_code": "11570",
    "country_code": "US",
    "phone": "516-764-5252",
    "website": "https://www.rockvillecamera.com/",
    "lat": 45.7685026,
    "lng": -82.1493682
  },
  {
    "name": "The Shutterbug",
    "address": "2418 13TH ST SE",
    "address2": null,
    "city": "Salem",
    "state": "OR",
    "postal_code": "97302",
    "country_code": "US",
    "phone": "503-399-2104",
    "website": "https://www.theshutterbug.com/",
    "lat": 44.9175739,
    "lng": -123.0287097
  },
  {
    "name": "Essential Photo Supply",
    "address": "959 E 900 S",
    "address2": null,
    "city": "Salt Lake City",
    "state": "UT",
    "postal_code": "84105",
    "country_code": "US",
    "phone": "801-410-8141",
    "website": "https://essentialphotosupply.com/",
    "lat": 40.7498103,
    "lng": -111.8566466
  },
  {
    "name": "Camera Exposure",
    "address": "2701 Adams Avenue 2701 Adams Avenue, San Diego, CA 92116",
    "address2": null,
    "city": "San Diego",
    "state": "CA",
    "postal_code": "92116",
    "country_code": "US",
    "phone": "619-640-5300",
    "website": "http://www.cameraexposure.com/",
    "lat": 32.7174202,
    "lng": -117.162772
  },
  {
    "name": "George's Camera",
    "address": "3837 30th Street",
    "address2": null,
    "city": "San Diego",
    "state": "CA",
    "postal_code": "92111",
    "country_code": "US",
    "phone": "(619) 297-3544",
    "website": "https://www.georgescamera.com",
    "lat": 32.7477907,
    "lng": -117.1299657
  },
  {
    "name": "Nelson Photo Supplies",
    "address": "3625 Midway Dr. Suite J",
    "address2": null,
    "city": "San Diego",
    "state": "CA",
    "postal_code": "92110",
    "country_code": "US",
    "phone": "(619) 234-6621",
    "website": "https://nelsonphotosupplies.com/",
    "lat": 32.7174202,
    "lng": -117.162772
  },
  {
    "name": "Fireside Camera Inc",
    "address": "2117 CHESTNUT ST",
    "address2": null,
    "city": "San Francisco",
    "state": "CA",
    "postal_code": "94123",
    "country_code": "US",
    "phone": "415-567-8131",
    "website": "https://firesidecamera.weebly.com/",
    "lat": 37.8004807,
    "lng": -122.4382396
  },
  {
    "name": "Glass Key Photo",
    "address": "1230 Sutter Street",
    "address2": null,
    "city": "San Francisco",
    "state": "CA",
    "postal_code": "94109",
    "country_code": "US",
    "phone": "4.158.299.946",
    "website": "http://www.glasskeyphoto.com",
    "lat": 37.787833,
    "lng": -122.4206926
  },
  {
    "name": "Photoworks Inc",
    "address": "2279 Market St",
    "address2": null,
    "city": "San Francisco",
    "state": "CA",
    "postal_code": "94114",
    "country_code": "US",
    "phone": "415-626-6800",
    "website": "https://www.photoworkssf.com/",
    "lat": 37.7645527,
    "lng": -122.4322813
  },
  {
    "name": "Foto Express",
    "address": "304 E. SANTA CLARA ST#C",
    "address2": null,
    "city": "San Jose",
    "state": "CA",
    "postal_code": "95113",
    "country_code": "US",
    "phone": "408-971-3977",
    "website": null,
    "lat": 37.3389465,
    "lng": -121.8838566
  },
  {
    "name": "Boca De Lobo",
    "address": "200 C. del Cristo unit #3",
    "address2": null,
    "city": "San Juan",
    "state": "PR",
    "postal_code": "00901",
    "country_code": "US",
    "phone": "323-632-8934",
    "website": "https://www.bocadelobofilm.com/",
    "lat": 18.465299,
    "lng": -66.116666
  },
  {
    "name": "Jeremiah's Photo Corner",
    "address": "441 SEBASTOPOL AVE",
    "address2": null,
    "city": "Santa Rosa",
    "state": "CA",
    "postal_code": "95401",
    "country_code": "US",
    "phone": "707-544-4800",
    "website": "http://www.jeremiahsphotocorner.com/",
    "lat": 38.4331683,
    "lng": -122.7148108
  },
  {
    "name": "Bay Camera Company",
    "address": "4604 HABERSHAM ST",
    "address2": null,
    "city": "Savannah",
    "state": "GA",
    "postal_code": "31405",
    "country_code": "US",
    "phone": "912-355-3587",
    "website": "https://www.facebook.com/baycameracompany/",
    "lat": 32.0357032,
    "lng": -81.1029779
  },
  {
    "name": "Bay Photo",
    "address": "920 Disc Drive",
    "address2": null,
    "city": "Scotts Valley",
    "state": "CA",
    "postal_code": "95066",
    "country_code": "US",
    "phone": "(800) 435-6686",
    "website": "https://www.bayphoto.com/",
    "lat": 37.0474379,
    "lng": -122.0154538
  },
  {
    "name": "Glazer's Camera Inc",
    "address": "811 Republican St.",
    "address2": null,
    "city": "Seattle",
    "state": "WA",
    "postal_code": "98109",
    "country_code": "US",
    "phone": "206-624-1100",
    "website": "https://www.glazerscamera.com/",
    "lat": 47.6230951,
    "lng": -122.3406672
  },
  {
    "name": "Shot On Film Store",
    "address": "512 NE 103RD A403",
    "address2": null,
    "city": "Seattle",
    "state": "WA",
    "postal_code": "98125",
    "country_code": "US",
    "phone": "206-466-6365",
    "website": "https://www.shotonfilmstore.com/",
    "lat": 47.6038321,
    "lng": -122.330062
  },
  {
    "name": "35M",
    "address": "15133 Ventura Blvd",
    "address2": null,
    "city": "Sherman Oaks",
    "state": "CA",
    "postal_code": "91403",
    "country_code": "US",
    "phone": "818-501-1234",
    "website": "https://35mpro.com/",
    "lat": 34.1534225,
    "lng": -118.4628115
  },
  {
    "name": "Spartan Photo Center",
    "address": "108 Garner Road",
    "address2": null,
    "city": "Spartanburg",
    "state": "SC",
    "postal_code": "29303",
    "country_code": "US",
    "phone": "864-583-6835",
    "website": "https://spartanphotocenter.com/",
    "lat": 34.9672361,
    "lng": -81.9293011
  },
  {
    "name": "Bedford Camera & Video Inc",
    "address": "610 W Emma Ave",
    "address2": null,
    "city": "Springdale",
    "state": "AR",
    "postal_code": "72764",
    "country_code": "US",
    "phone": "800-333-4280",
    "website": "https://www.bedfords.com/",
    "lat": 36.1854218,
    "lng": -94.136321
  },
  {
    "name": "W. Schiller & Co Inc",
    "address": "9240 Manchester Rd",
    "address2": null,
    "city": "St Louis",
    "state": "MO",
    "postal_code": "63144",
    "country_code": "US",
    "phone": "800-366-7244",
    "website": "https://schillers.com/",
    "lat": 38.6142445,
    "lng": -90.3138193
  },
  {
    "name": "Goodies Texas",
    "address": "114 N Tennessee",
    "address2": null,
    "city": "St. McKinney",
    "state": "TX",
    "postal_code": "75069",
    "country_code": "US",
    "phone": null,
    "website": "https://www.focusphototexas.com",
    "lat": 33.2180877,
    "lng": -97.1024133
  },
  {
    "name": "Hooper Camera",
    "address": "616 E Thousand Oaks Blvd.",
    "address2": null,
    "city": "Thousand Oaks",
    "state": "California",
    "postal_code": "91360",
    "country_code": "US",
    "phone": "8054943080",
    "website": "http://hoopercamera.com/",
    "lat": 34.1797003,
    "lng": -118.8630932
  },
  {
    "name": "Paul's Photo",
    "address": "23845 HAWTHORNE BLVD",
    "address2": null,
    "city": "Torrance",
    "state": "CA",
    "postal_code": "90505",
    "country_code": "US",
    "phone": "310-375-7014",
    "website": "https://paulsphoto.com/",
    "lat": 33.8075883,
    "lng": -118.351461
  },
  {
    "name": "Apertures Photo",
    "address": "3135 So. Yale Ave.",
    "address2": null,
    "city": "Tulsa",
    "state": "OK",
    "postal_code": "74135",
    "country_code": "US",
    "phone": "918-742-3454",
    "website": "https://www.aperturesphoto.com/",
    "lat": 36.1563122,
    "lng": -95.9927516
  },
  {
    "name": "Mc Art Supplies",
    "address": "2025 WASHINGTON AVE",
    "address2": null,
    "city": "Waco",
    "state": "TX",
    "postal_code": "76701",
    "country_code": "US",
    "phone": "254-235-0753",
    "website": "https://mcartsupplies.com/",
    "lat": 31.5453137,
    "lng": -97.1469059
  },
  {
    "name": "Camera Exchange (Hi-Tech Sales & Mktg)",
    "address": "5582 Dixie Highway",
    "address2": null,
    "city": "Waterford",
    "state": "MI",
    "postal_code": "48329",
    "country_code": "US",
    "phone": "248-623-8990",
    "website": "https://cameraexc.com/",
    "lat": 42.6985086,
    "lng": -83.3974733
  },
  {
    "name": "Bergen County Camera",
    "address": "270 WESTWOOD AVE",
    "address2": null,
    "city": "Westwood",
    "state": "NJ",
    "postal_code": "07675",
    "country_code": "US",
    "phone": "201-664-4113",
    "website": "https://bergencountycamera.com/",
    "lat": 40.9929713,
    "lng": -74.0300783
  },
  {
    "name": "Molers Camera",
    "address": "2609 E Douglas Ave",
    "address2": null,
    "city": "Wichita",
    "state": "KS",
    "postal_code": "67211",
    "country_code": "US",
    "phone": "316-685-1114",
    "website": "https://www.molerscamera.com/",
    "lat": 37.6861774,
    "lng": -97.3055657
  },
  {
    "name": "Tcb Camera",
    "address": "4405 D WRIGHTSVILLE AVE",
    "address2": null,
    "city": "Wilmington",
    "state": "NC",
    "postal_code": "28403",
    "country_code": "US",
    "phone": "910-399-3340",
    "website": "https://www.facebook.com/TCBCameraPhoto",
    "lat": 34.2268509,
    "lng": -77.9156689
  },
  {
    "name": "Phototronics",
    "address": "996 Green Bay Road",
    "address2": null,
    "city": "Winnetka",
    "state": "Illinois",
    "postal_code": "60093",
    "country_code": "US",
    "phone": "8479028802",
    "website": "https://www.phototronics.net/",
    "lat": 42.118966,
    "lng": -87.745658
  },
  {
    "name": "LIIQ Flash",
    "address": "45A Nui Truc Street",
    "address2": "Kim Ma",
    "city": "Ha Noi",
    "state": null,
    "postal_code": "100000",
    "country_code": "VN",
    "phone": "+84 989-558-938",
    "website": "http://liiqflash.com",
    "lat": 21.0283334,
    "lng": 105.854041
  },
  {
    "name": "That Good Hour",
    "address": null,
    "address2": null,
    "city": "Cape town",
    "state": null,
    "postal_code": null,
    "country_code": "ZA",
    "phone": null,
    "website": "https://thatgoodhour.com",
    "lat": -33.9288301,
    "lng": 18.4172197
  }
]